{
    "admin_unit_0_id": "MDG",
    "end_date": "2025-12-18",
    "simulation_type": "COMPARTMENTAL",
    "run_mode": "UNCERTAINTY",
    "start_date": "2025-11-18",
    "time_steps": 180,
    "AdminUnit0": {
        "id": "MDG",
        "center_lat": -19.37564815173127
    },
    "Disease": {
        "disease_type": "RESPIRATORY",
        "compartment_list": [
            "S",
            "E",
            "I",
            "H",
            "D",
            "R"
        ],
        "transmission_edges": [
            {
                "data": {
                    "transmission_rate": 0.25,
                    "variance_params": {
                        "has_variance": true,
                        "distribution_type": "UNIFORM",
                        "field_name": null,
                        "min": 0.2,
                        "max": 0.3
                    }
                },
                "source": "susceptible",
                "target": "exposed"
            },
            {
                "data": {
                    "transmission_rate": 0.2
                },
                "source": "exposed",
                "target": "infected"
            },
            {
                "data": {
                    "transmission_rate": 0.0004,
                    "variance_params": {
                        "has_variance": true,
                        "distribution_type": "UNIFORM",
                        "field_name": null,
                        "min": 0.0004,
                        "max": 0.004
                    }
                },
                "source": "infected",
                "target": "hospitalized"
            },
            {
                "data": {
                    "transmission_rate": 0.0001,
                    "variance_params": {
                        "has_variance": true,
                        "distribution_type": "UNIFORM",
                        "field_name": null,
                        "min": 0.0001,
                        "max": 0.001
                    }
                },
                "source": "infected",
                "target": "deceased"
            },
            {
                "data": {
                    "transmission_rate": 0.001
                },
                "source": "hospitalized",
                "target": "deceased"
            },
            {
                "data": {
                    "transmission_rate": 0.14
                },
                "source": "infected",
                "target": "recovered"
            },
            {
                "data": {
                    "transmission_rate": 0.14
                },
                "source": "hospitalized",
                "target": "recovered"
            }
        ]
    },
    "interventions": [
        {
            "adherence_min": 20.0,
            "end_date": "2025-12-18",
            "id": "mask_wearing",
            "start_date": "2025-11-18",
            "transmission_percentage": 35.0,
            "variance_params": [
                {
                    "has_variance": true,
                    "distribution_type": "UNIFORM",
                    "field_name": "adherence_min",
                    "min": 20.0,
                    "max": 70.0
                },
                {
                    "has_variance": true,
                    "distribution_type": "UNIFORM",
                    "field_name": "transmission_percentage",
                    "min": 35.0,
                    "max": 75.0
                }
            ]
        },
        {
            "adherence_min": 40.0,
            "end_date": "2025-01-31",
            "id": "social_isolation",
            "start_date": "2025-11-18",
            "transmission_percentage": 50.0,
            "variance_params": [
                {
                    "has_variance": false,
                    "distribution_type": "UNIFORM",
                    "field_name": "adherence_min",
                    "min": 20.0,
                    "max": 70.0
                },
                {
                    "has_variance": false,
                    "distribution_type": "UNIFORM",
                    "field_name": "transmission_percentage",
                    "min": 35.0,
                    "max": 75.0
                }
            ]
        }
    ],
    "case_file": {
        "admin_zones": [
            {
                "center_lat": -18.93585290187204,
                "center_lon": 46.80467692606311,
                "name": "Antananarivo",
                "population": 7982937,
                "infected_population": 0.05
            },
            {
                "center_lat": -13.869271297424163,
                "center_lon": 49.413514128028105,
                "name": "Antsiranana",
                "population": 2127141,
                "infected_population": 0.04
            },
            {
                "center_lat": -21.856236442723883,
                "center_lon": 46.86230787719887,
                "name": "Fianarantsoa",
                "population": 5785134,
                "infected_population": 0.03
            },
            {
                "center_lat": -16.536991119784563,
                "center_lon": 46.68467040064395,
                "name": "Mahajanga",
                "population": 3783162,
                "infected_population": 0.06
            },
            {
                "center_lat": -17.82287275056714,
                "center_lon": 48.7510838190036,
                "name": "Toamasina",
                "population": 3693480,
                "infected_population": 0.07
            },
            {
                "center_lat": -22.60126035484297,
                "center_lon": 45.01750093141163,
                "name": "Toliary",
                "population": 4621930,
                "infected_population": 0.01
            }
        ],
        "demographics": {
            "age_0_17": 10.0,
            "age_18_55": 55.0,
            "age_56_plus": 35.0
        }
    },
    "travel_volume": {
        "leaving": 20.0    
    }
}