{
    "Disease": {
        "disease_type": "COVID_SEIHDR",
        "compartment_list": ["S", "E", "I", "H", "D", "R"]
    },
    "start_date": "2025-11-01",
    "end_date": "2025-12-31",
    "TransmissionEdges": {
        "items": [
            { "transmission_edge": { "value_type": "RATE", "source": "susceptible", "target": "exposed" }, "value": 0.25 },
            { "transmission_edge": { "value_type": "DAYS", "source": "exposed", "target": "infected" }, "value": 0.2 },
            { "transmission_edge": { "value_type": "PERCENTAGE", "source": "infected", "target": "hospitalized" }, "value": 0.0004 },
            { "transmission_edge": { "value_type": "RATE", "source": "infected", "target": "deceased" }, "value": 0.0001 },
            { "transmission_edge": { "value_type": "RATE", "source": "hospitalized", "target": "deceased" }, "value": 0.001 },
            { "transmission_edge": { "value_type": "DAYS", "source": "infected", "target": "recovered" }, "value": 0.14 },
            { "transmission_edge": { "value_type": "DAYS", "source": "hospitalized", "target": "recovered" }, "value": 0.14 }
        ]
    },
    "Interventions": {
        "items": [
            {
                "Intervention": { "name": "MASK_WEARING", "display_name": "Mask Wearing" },
                "adherence_min": 20.0,
                "transmission_percentage": 35.0,
                "start_date": "2025-11-01",
                "end_date": "2025-12-31"
            },
            {
                "Intervention": { "name": "SOCIAL_ISOLATION", "display_name": "Social Isolation" },
                "adherence_min": 40.0,
                "transmission_percentage": 50.0,
                "start_date": "2025-11-01",
                "end_date": "2025-12-31"
            }
        ]
    },
    "admin_zones": [
        { "name": "Antananarivo", "center_lat": -18.94, "center_lon": 46.80, "population": 7982937, "infected_population": 0.05 },
        { "name": "Antsiranana", "center_lat": -13.87, "center_lon": 49.41, "population": 2127141, "infected_population": 0.04 },
        { "name": "Fianarantsoa", "center_lat": -21.86, "center_lon": 46.86, "population": 5785134, "infected_population": 0.03 },
        { "name": "Mahajanga", "center_lat": -16.54, "center_lon": 46.68, "population": 3783162, "infected_population": 0.06 },
        { "name": "Toamasina", "center_lat": -17.82, "center_lon": 48.75, "population": 3693480, "infected_population": 0.07 },
        { "name": "Toliary", "center_lat": -22.60, "center_lon": 45.02, "population": 4621930, "infected_population": 0.01 }
    ],
    "demographics": { "age_0_17": 10.0, "age_18_55": 55.0, "age_56_plus": 35.0 },
    "travel_volume": { "leaving": 20.0 }
}
